Received from ('172.20.10.1', 58784): $GPRMC,130916,A,5106.53518,N,00420.79375,E,0.00,0.00,061224,003.1,W*68
Received from ('172.20.10.1', 58784): $GPRMC,130916,A,5106.53518,N,00420.79375,E,0.00,0.00,061224,003.1,W*68
Received from ('172.20.10.1', 58784): $GPRMC,130917,A,5106.53512,N,00420.79379,E,0.00,0.00,061224,003.1,W*6F
Received from ('172.20.10.1', 58784): $GPRMC,130917,A,5106.53512,N,00420.79379,E,0.00,0.00,061224,003.1,W*6F
Received from ('172.20.10.1', 58784): $GPRMC,130918,A,5106.53512,N,00420.79380,E,0.00,0.00,061224,003.1,W*66
Received from ('172.20.10.1', 58784): $GPRMC,130918,A,5106.53512,N,00420.79380,E,0.00,0.00,061224,003.1,W*66
Received from ('172.20.10.1', 58784): $GPRMC,130919,A,5106.53506,N,00420.79385,E,0.00,0.00,061224,003.1,W*67
Received from ('172.20.10.1', 58784): $GPRMC,130919,A,5106.53506,N,00420.79385,E,0.00,0.00,061224,003.1,W*67
Received from ('172.20.10.1', 58784): $GPRMC,130920,A,5106.53505,N,00420.79385,E,0.00,0.00,061224,003.1,W*6E
Received from ('172.20.10.1', 58784): $GPRMC,130920,A,5106.53505,N,00420.79385,E,0.00,0.00,061224,003.1,W*6E
Received from ('172.20.10.1', 58784): $GPRMC,130921,A,5106.53499,N,00420.79390,E,0.00,0.00,061224,003.1,W*6F
Received from ('172.20.10.1', 58784): $GPRMC,130921,A,5106.53499,N,00420.79390,E,0.00,0.00,061224,003.1,W*6F
Received from ('172.20.10.1', 58784): $GPRMC,130922,A,5106.53499,N,00420.79390,E,0.00,0.00,061224,003.1,W*6C
Received from ('172.20.10.1', 58784): $GPRMC,130922,A,5106.53499,N,00420.79390,E,0.00,0.00,061224,003.1,W*6C
Received from ('172.20.10.1', 58784): $GPRMC,130923,A,5106.53494,N,00420.79394,E,0.00,0.00,061224,003.1,W*64
Received from ('172.20.10.1', 58784): $GPRMC,130923,A,5106.53494,N,00420.79394,E,0.00,0.00,061224,003.1,W*64
Received from ('172.20.10.1', 58784): $GPRMC,130924,A,5106.53491,N,00420.79387,E,0.11,0.00,061224,003.1,W*64
Received from ('172.20.10.1', 58784): $GPRMC,130924,A,5106.53491,N,00420.79387,E,0.11,0.00,061224,003.1,W*64
Received from ('172.20.10.1', 58784): $GPRMC,130925,A,5106.53489,N,00420.79379,E,0.18,0.00,061224,003.1,W*64
Received from ('172.20.10.1', 58784): $GPRMC,130925,A,5106.53489,N,00420.79379,E,0.18,0.00,061224,003.1,W*64
Received from ('172.20.10.1', 58784): $GPRMC,130926,A,5106.53489,N,00420.79389,E,0.52,0.00,061224,003.1,W*66
Received from ('172.20.10.1', 58784): $GPRMC,130926,A,5106.53489,N,00420.79389,E,0.52,0.00,061224,003.1,W*66
Received from ('172.20.10.1', 58784): $GPRMC,130927,A,5106.53488,N,00420.79390,E,0.00,0.00,061224,003.1,W*69
Received from ('172.20.10.1', 58784): $GPRMC,130927,A,5106.53488,N,00420.79390,E,0.00,0.00,061224,003.1,W*69
Received from ('172.20.10.1', 58784): $GPRMC,130928,A,5106.53486,N,00420.79392,E,0.00,0.00,061224,003.1,W*6A
Received from ('172.20.10.1', 58784): $GPRMC,130928,A,5106.53486,N,00420.79392,E,0.00,0.00,061224,003.1,W*6A
Received from ('172.20.10.1', 58784): $GPRMC,130929,A,5106.53486,N,00420.79392,E,0.00,0.00,061224,003.1,W*6B
Received from ('172.20.10.1', 58784): $GPRMC,130929,A,5106.53486,N,00420.79392,E,0.00,0.00,061224,003.1,W*6B
Received from ('172.20.10.1', 58784): $GPRMC,130930,A,5106.53488,N,00420.79384,E,0.18,0.00,061224,003.1,W*63
Received from ('172.20.10.1', 58784): $GPRMC,130930,A,5106.53488,N,00420.79384,E,0.18,0.00,061224,003.1,W*63
Received from ('172.20.10.1', 58784): $GPRMC,130931,A,5106.53485,N,00420.79382,E,0.24,0.00,061224,003.1,W*66
Received from ('172.20.10.1', 58784): $GPRMC,130931,A,5106.53485,N,00420.79382,E,0.24,0.00,061224,003.1,W*66
Received from ('172.20.10.1', 58784): $GPRMC,130932,A,5106.53483,N,00420.79383,E,0.08,0.00,061224,003.1,W*6C
Received from ('172.20.10.1', 58784): $GPRMC,130932,A,5106.53483,N,00420.79383,E,0.08,0.00,061224,003.1,W*6C
Received from ('172.20.10.1', 58784): $GPRMC,130933,A,5106.53393,N,00420.79375,E,0.38,0.00,061224,003.1,W*61
Received from ('172.20.10.1', 58784): $GPRMC,130933,A,5106.53393,N,00420.79375,E,0.38,0.00,061224,003.1,W*61
Received from ('172.20.10.1', 58784): $GPRMC,130934,A,5106.53363,N,00420.79327,E,0.29,0.00,061224,003.1,W*6E
Received from ('172.20.10.1', 58784): $GPRMC,130934,A,5106.53363,N,00420.79327,E,0.29,0.00,061224,003.1,W*6E
Received from ('172.20.10.1', 58784): $GPRMC,130935,A,5106.53361,N,00420.79326,E,0.00,0.00,061224,003.1,W*67
Received from ('172.20.10.1', 58784): $GPRMC,130935,A,5106.53361,N,00420.79326,E,0.00,0.00,061224,003.1,W*67
Received from ('172.20.10.1', 58784): $GPRMC,130936,A,5106.53361,N,00420.79326,E,0.00,0.00,061224,003.1,W*64
Received from ('172.20.10.1', 58784): $GPRMC,130936,A,5106.53361,N,00420.79326,E,0.00,0.00,061224,003.1,W*64
Received from ('172.20.10.1', 58784): $GPRMC,130937,A,5106.53329,N,00420.79315,E,0.25,0.00,061224,003.1,W*6E
Received from ('172.20.10.1', 58784): $GPRMC,130937,A,5106.53329,N,00420.79315,E,0.25,0.00,061224,003.1,W*6E
Received from ('172.20.10.1', 58784): $GPRMC,130938,A,5106.53317,N,00420.79304,E,0.56,0.00,061224,003.1,W*68
Received from ('172.20.10.1', 58784): $GPRMC,130938,A,5106.53317,N,00420.79304,E,0.56,0.00,061224,003.1,W*68
Received from ('172.20.10.1', 58784): $GPRMC,130939,A,5106.53318,N,00420.79312,E,0.00,0.00,061224,003.1,W*62
Received from ('172.20.10.1', 58784): $GPRMC,130939,A,5106.53318,N,00420.79312,E,0.00,0.00,061224,003.1,W*62
Received from ('172.20.10.1', 58784): $GPRMC,130940,A,5106.53319,N,00420.79296,E,0.14,0.00,061224,003.1,W*65
Received from ('172.20.10.1', 58784): $GPRMC,130940,A,5106.53319,N,00420.79296,E,0.14,0.00,061224,003.1,W*65
Received from ('172.20.10.1', 58784): $GPRMC,130941,A,5106.53307,N,00420.79223,E,0.19,0.00,061224,003.1,W*68
Received from ('172.20.10.1', 58784): $GPRMC,130941,A,5106.53307,N,00420.79223,E,0.19,0.00,061224,003.1,W*68
Received from ('172.20.10.1', 58784): $GPRMC,130942,A,5106.53308,N,00420.79221,E,0.00,0.00,061224,003.1,W*6E
Received from ('172.20.10.1', 58784): $GPRMC,130942,A,5106.53308,N,00420.79221,E,0.00,0.00,061224,003.1,W*6E
Received from ('172.20.10.1', 58784): $GPRMC,130943,A,5106.53261,N,00420.79168,E,0.16,0.00,061224,003.1,W*68
Received from ('172.20.10.1', 58784): $GPRMC,130943,A,5106.53261,N,00420.79168,E,0.16,0.00,061224,003.1,W*68
Received from ('172.20.10.1', 58784): $GPRMC,130944,A,5106.53263,N,00420.79161,E,0.22,0.00,061224,003.1,W*63
Received from ('172.20.10.1', 58784): $GPRMC,130944,A,5106.53263,N,00420.79161,E,0.22,0.00,061224,003.1,W*63
Received from ('172.20.10.1', 58784): $GPRMC,130945,A,5106.53225,N,00420.79273,E,1.02,0.00,061224,003.1,W*63
Received from ('172.20.10.1', 58784): $GPRMC,130945,A,5106.53225,N,00420.79273,E,1.02,0.00,061224,003.1,W*63
Received from ('172.20.10.1', 58784): $GPRMC,130946,A,5106.53293,N,00420.79521,E,2.12,0.00,061224,003.1,W*6F
Received from ('172.20.10.1', 58784): $GPRMC,130946,A,5106.53293,N,00420.79521,E,2.12,0.00,061224,003.1,W*6F
Received from ('172.20.10.1', 58784): $GPRMC,130947,A,5106.53390,N,00420.79692,E,2.54,0.00,061224,003.1,W*65
Received from ('172.20.10.1', 58784): $GPRMC,130947,A,5106.53390,N,00420.79692,E,2.54,0.00,061224,003.1,W*65
Received from ('172.20.10.1', 58784): $GPRMC,130948,A,5106.53504,N,00420.79880,E,2.83,70.9,061224,003.1,W*68
Received from ('172.20.10.1', 58784): $GPRMC,130948,A,5106.53504,N,00420.79880,E,2.83,70.9,061224,003.1,W*68
Received from ('172.20.10.1', 58784): $GPRMC,130949,A,5106.53317,N,00420.80247,E,4.63,112.2,061224,003.1,W*5C
Received from ('172.20.10.1', 58784): $GPRMC,130949,A,5106.53317,N,00420.80247,E,4.63,112.2,061224,003.1,W*5C
Received from ('172.20.10.1', 58784): $GPRMC,130950,A,5106.53198,N,00420.80621,E,5.64,119.6,061224,003.1,W*5C
Received from ('172.20.10.1', 58784): $GPRMC,130950,A,5106.53198,N,00420.80621,E,5.64,119.6,061224,003.1,W*5C
Received from ('172.20.10.1', 58784): $GPRMC,130951,A,5106.52981,N,00420.81147,E,8.30,120.2,061224,003.1,W*58
Received from ('172.20.10.1', 58784): $GPRMC,130951,A,5106.52981,N,00420.81147,E,8.30,120.2,061224,003.1,W*58
Received from ('172.20.10.1', 58784): $GPRMC,130952,A,5106.52583,N,00420.81593,E,10.01,126.6,061224,003.1,W*61
Received from ('172.20.10.1', 58784): $GPRMC,130952,A,5106.52583,N,00420.81593,E,10.01,126.6,061224,003.1,W*61
Received from ('172.20.10.1', 58784): $GPRMC,130953,A,5106.52372,N,00420.81945,E,10.24,129.2,061224,003.1,W*63
Received from ('172.20.10.1', 58784): $GPRMC,130953,A,5106.52372,N,00420.81945,E,10.24,129.2,061224,003.1,W*63
Received from ('172.20.10.1', 58784): $GPRMC,130954,A,5106.52155,N,00420.82464,E,10.75,127.0,061224,003.1,W*66
Received from ('172.20.10.1', 58784): $GPRMC,131005,A,5106.50126,N,00420.86873,E,8.78,127.0,061224,003.1,W*56
Received from ('172.20.10.1', 58784): $GPRMC,131006,A,5106.50097,N,00420.86936,E,7.57,127.0,061224,003.1,W*5C
Received from ('172.20.10.1', 58784): $GPRMC,131012,A,5106.48752,N,00420.88469,E,8.74,128.1,061224,003.1,W*57
Received from ('172.20.10.1', 58784): $GPRMC,131013,A,5106.48562,N,00420.88652,E,8.25,128.1,061224,003.1,W*59
Received from ('172.20.10.1', 58784): $GPRMC,131013,A,5106.48562,N,00420.88652,E,8.25,128.1,061224,003.1,W*59
Received from ('172.20.10.1', 58784): $GPRMC,131017,A,5106.48256,N,00420.89522,E,7.15,127.4,061224,003.1,W*5E
Received from ('172.20.10.1', 58784): $GPRMC,131019,A,5106.47840,N,00420.90244,E,8.15,127.4,061224,003.1,W*52
Received from ('172.20.10.1', 58784): $GPRMC,131026,A,5106.47204,N,00420.91698,E,4.01,127.2,061224,003.1,W*5F
Received from ('172.20.10.1', 58784): $GPRMC,131027,A,5106.47256,N,00420.91576,E,2.60,127.2,061224,003.1,W*5B
Received from ('172.20.10.1', 58784): $GPRMC,131027,A,5106.47256,N,00420.91576,E,2.60,127.2,061224,003.1,W*5B
Received from ('172.20.10.1', 58784): $GPRMC,131028,A,5106.47229,N,00420.91659,E,2.47,127.2,061224,003.1,W*57
Received from ('172.20.10.1', 58784): $GPRMC,131028,A,5106.47229,N,00420.91659,E,2.47,127.2,061224,003.1,W*57
Received from ('172.20.10.1', 58784): $GPRMC,131029,A,5106.47232,N,00420.91877,E,0.33,127.2,061224,003.1,W*5F
Received from ('172.20.10.1', 58784): $GPRMC,131029,A,5106.47232,N,00420.91877,E,0.33,127.2,061224,003.1,W*5F
Received from ('172.20.10.1', 58784): $GPRMC,131030,A,5106.47318,N,00420.91787,E,0.00,127.2,061224,003.1,W*5E
Received from ('172.20.10.1', 58784): $GPRMC,131030,A,5106.47318,N,00420.91787,E,0.00,127.2,061224,003.1,W*5E
Received from ('172.20.10.1', 58784): $GPRMC,131031,A,5106.47318,N,00420.91787,E,0.00,127.2,061224,003.1,W*5F
Received from ('172.20.10.1', 58784): $GPRMC,131031,A,5106.47318,N,00420.91787,E,0.00,127.2,061224,003.1,W*5F
Received from ('172.20.10.1', 58784): $GPRMC,131032,A,5106.47318,N,00420.91787,E,0.00,127.2,061224,003.1,W*5C
Received from ('172.20.10.1', 58784): $GPRMC,131032,A,5106.47318,N,00420.91787,E,0.00,127.2,061224,003.1,W*5C
Received from ('172.20.10.1', 58784): $GPRMC,131033,A,5106.47318,N,00420.91787,E,0.00,127.2,061224,003.1,W*5D
Received from ('172.20.10.1', 58784): $GPRMC,131033,A,5106.47318,N,00420.91787,E,0.00,127.2,061224,003.1,W*5D
Received from ('172.20.10.1', 58784): $GPRMC,131034,A,5106.47318,N,00420.91787,E,0.00,127.2,061224,003.1,W*5A
Received from ('172.20.10.1', 58784): $GPRMC,131034,A,5106.47318,N,00420.91787,E,0.00,127.2,061224,003.1,W*5A
Received from ('172.20.10.1', 58784): $GPRMC,131035,A,5106.47318,N,00420.91787,E,0.00,127.2,061224,003.1,W*5B
Received from ('172.20.10.1', 58784): $GPRMC,131035,A,5106.47318,N,00420.91787,E,0.00,127.2,061224,003.1,W*5B
Received from ('172.20.10.1', 58784): $GPRMC,131036,A,5106.47318,N,00420.91787,E,0.00,127.2,061224,003.1,W*58
Received from ('172.20.10.1', 58784): $GPRMC,131036,A,5106.47318,N,00420.91787,E,0.00,127.2,061224,003.1,W*58
Received from ('172.20.10.1', 58784): $GPRMC,131037,A,5106.47318,N,00420.91787,E,0.00,127.2,061224,003.1,W*59
Received from ('172.20.10.1', 58784): $GPRMC,131037,A,5106.47318,N,00420.91787,E,0.00,127.2,061224,003.1,W*59
Received from ('172.20.10.1', 58784): $GPRMC,131038,A,5106.47318,N,00420.91787,E,0.00,127.2,061224,003.1,W*56
Received from ('172.20.10.1', 58784): $GPRMC,131038,A,5106.47318,N,00420.91787,E,0.00,127.2,061224,003.1,W*56
Received from ('172.20.10.1', 58784): $GPRMC,131039,A,5106.47318,N,00420.91787,E,0.00,127.2,061224,003.1,W*57